[{"day": "2019-03-07", "lo": 20690, "hi": 20690, "minPriceLocation": {"country": "US", "region": "NC", "city": "Raleigh", "postal": "27608", "lat": 35.8077, "lng": -78.6463, "tz": "America/New_York"}}, {"day": "2019-03-09", "lo": 25852, "hi": 25852, "minPriceLocation": {"country": "US", "region": "VA", "city": "Falls Church", "postal": "22101", "lat": 38.9326, "lng": -77.1706, "tz": "America/New_York"}}, {"day": "2019-03-11", "lo": 26998, "hi": 26998, "minPriceLocation": {"country": "US", "region": "MI", "city": "Lincoln Park", "postal": "48146", "lat": 42.2422, "lng": -83.1807, "tz": "America/Detroit"}}, {"day": "2019-03-12", "lo": 19871, "hi": 19871, "minPriceLocation": {"country": "US", "region": "NY", "city": "Flushing", "postal": "11355", "lat": 40.7536, "lng": -73.8226, "tz": "America/New_York"}}, {"day": "2019-03-14", "lo": 20711, "hi": 20711, "minPriceLocation": {"country": "US", "region": "AZ", "city": "Phoenix", "postal": "85018", "lat": 33.4958, "lng": -111.9883, "tz": "America/Phoenix"}}, {"day": "2019-03-15", "lo": 20050, "hi": 20050, "minPriceLocation": {"country": "US", "region": "NJ", "city": "Kendall Park", "postal": "08824", "lat": 40.4208, "lng": -74.5529, "tz": "America/New_York"}}, {"day": "2019-03-18", "lo": 19871, "hi": 19871, "minPriceLocation": {"country": "US", "region": "MD", "city": "Derwood", "postal": "20855", "lat": 39.1345, "lng": -77.1477, "tz": "America/New_York"}}, {"day": "2019-03-28", "lo": 22259, "hi": 22259, "minPriceLocation": {"country": "US", "region": "MO", "city": "Bolivar", "postal": "65613", "lat": 37.6085, "lng": -93.4126, "tz": "America/Chicago"}}, {"day": "2019-03-30", "lo": 26500, "hi": 26500, "minPriceLocation": {"country": "US", "region": "CO", "city": "Longmont", "postal": "80501", "lat": 40.1779, "lng": -105.1009, "tz": "America/Denver"}}, {"day": "2019-04-08", "lo": 26998, "hi": 26998, "minPriceLocation": {"country": "US", "region": "KS", "city": "Wichita", "postal": "67216", "lat": 37.6223, "lng": -97.3136, "tz": "America/Chicago"}}, {"day": "2019-04-11", "lo": 27489, "hi": 27489, "minPriceLocation": {}}, {"day": "2019-04-21", "lo": 26439, "hi": 26439, "minPriceLocation": {"country": "US", "region": "VA", "city": "Herndon", "postal": "20171", "lat": 38.9252, "lng": -77.3928, "tz": "America/New_York"}}, {"day": "2019-05-09", "lo": 16449, "hi": 16449, "minPriceLocation": {"country": "US", "region": "LA", "city": "New Orleans", "postal": "70127", "lat": 30.0313, "lng": -89.9758, "tz": "America/Chicago"}}, {"day": "2019-05-10", "lo": 19597, "hi": 19597, "minPriceLocation": {"country": "US", "region": "IL", "city": "Bridgeview", "postal": "60455", "lat": 41.7431, "lng": -87.8066, "tz": "America/Chicago"}}, {"day": "2019-05-17", "lo": 26439, "hi": 26439, "minPriceLocation": {"country": "US", "lat": 37.751, "lng": -97.822}}, {"day": "2019-06-06", "lo": 26427, "hi": 26427, "minPriceLocation": {"country": "US", "region": "CA", "city": "Twentynine Palms", "postal": "92277", "lat": 34.1455, "lng": -116.0601, "tz": "America/Los_Angeles"}}, {"day": "2019-06-12", "lo": 26087, "hi": 26087, "minPriceLocation": {"country": "US", "region": "FL", "city": "Englewood", "postal": "34223", "lat": 26.9667, "lng": -82.3599, "tz": "America/New_York"}}, {"day": "2019-06-15", "lo": 26086, "hi": 26086, "minPriceLocation": {"country": "US", "region": "MI", "city": "Jackson", "postal": "49203", "lat": 42.229, "lng": -84.4132, "tz": "America/Detroit"}}, {"day": "2019-06-17", "lo": 26085, "hi": 26085, "minPriceLocation": {"country": "US", "region": "FL", "city": "Hialeah", "postal": "33018", "lat": 25.9098, "lng": -80.3889, "tz": "America/New_York"}}, {"day": "2019-06-19", "lo": 26083, "hi": 26083, "minPriceLocation": {"country": "US", "region": "NJ", "city": "Union City", "postal": "07087", "lat": 40.7674, "lng": -74.0323, "tz": "America/New_York"}}, {"day": "2019-06-21", "lo": 26082, "hi": 26082, "minPriceLocation": {"country": "US", "region": "AL", "city": "Rogersville", "postal": "35652", "lat": 34.8495, "lng": -87.3237, "tz": "America/Chicago"}}, {"day": "2019-06-27", "lo": 25982, "hi": 25982, "minPriceLocation": {"country": "CA", "region": "AB", "city": "Edmonton", "postal": "T5A", "lat": 53.5931, "lng": -113.4077, "tz": "America/Edmonton"}}, {"day": "2019-06-28", "lo": 25981, "hi": 25981, "minPriceLocation": {"country": "US", "region": "AZ", "city": "Chandler", "postal": "85224", "lat": 33.3301, "lng": -111.8632, "tz": "America/Phoenix"}}, {"day": "2019-06-29", "lo": 25980, "hi": 25980, "minPriceLocation": {"country": "US", "region": "MI", "city": "Ironwood", "postal": "49938", "lat": 46.4638, "lng": -90.1588, "tz": "America/Menominee"}}, {"day": "2019-06-30", "lo": 25982, "hi": 25982, "minPriceLocation": {"country": "US", "region": "OH", "city": "Cambridge", "postal": "43725", "lat": 40.027, "lng": -81.582, "tz": "America/New_York"}}, {"day": "2019-07-06", "lo": 26079, "hi": 26079, "minPriceLocation": {"country": "US", "region": "TX", "city": "Nacogdoches", "postal": "75965", "lat": 31.7195, "lng": -94.6168, "tz": "America/Chicago"}}, {"day": "2019-07-20", "lo": 26077, "hi": 26077, "minPriceLocation": {"country": "US", "region": "ME", "city": "Biddeford", "postal": "04005", "lat": 43.4935, "lng": -70.4883, "tz": "America/New_York"}}, {"day": "2019-07-26", "lo": 25948, "hi": 25948, "minPriceLocation": {"country": "US", "region": "IL", "city": "Chicago", "postal": "60634", "lat": 41.9463, "lng": -87.8061, "tz": "America/Chicago"}}, {"day": "2019-07-29", "lo": 25899, "hi": 25922, "minPriceLocation": {"country": "US", "region": "KY", "city": "London", "postal": "40741", "lat": 37.1549, "lng": -84.0961, "tz": "America/New_York"}}, {"day": "2019-07-31", "lo": 25854, "hi": 25875, "minPriceLocation": {"country": "US", "region": "TX", "city": "The Colony", "postal": "75056", "lat": 33.094, "lng": -96.8836, "tz": "America/Chicago"}}, {"day": "2019-08-03", "lo": 25852, "hi": 25852, "minPriceLocation": {"country": "US", "region": "OR", "city": "Klamath Falls", "postal": "97603", "lat": 42.1919, "lng": -121.72409999999999, "tz": "America/Los_Angeles"}}, {"day": "2019-08-09", "lo": 25851, "hi": 25851, "minPriceLocation": {"country": "KR", "region": "28", "city": "Incheon", "lat": 37.4536, "lng": 126.7317, "tz": "Asia/Seoul"}}, {"day": "2019-08-10", "lo": 25854, "hi": 25854, "minPriceLocation": {"country": "US", "region": "NY", "city": "New York", "postal": "10040", "lat": 40.8583, "lng": -73.9296, "tz": "America/New_York"}}, {"day": "2019-08-14", "lo": 26272, "hi": 26272, "minPriceLocation": {"country": "US", "region": "AZ", "city": "Gilbert", "postal": "85233", "lat": 33.3354, "lng": -111.8153, "tz": "America/Phoenix"}}, {"day": "2019-08-15", "lo": 25854, "hi": 25854, "minPriceLocation": {"country": "US", "region": "CA", "city": "San Diego", "postal": "92101", "lat": 32.7185, "lng": -117.1593, "tz": "America/Los_Angeles"}}, {"day": "2019-08-17", "lo": 25735, "hi": 25735, "minPriceLocation": {"country": "US", "region": "SC", "city": "Greenville", "postal": "29605", "lat": 34.8001, "lng": -82.3932, "tz": "America/New_York"}}, {"day": "2019-08-28", "lo": 27501, "hi": 27501, "minPriceLocation": {"country": "US", "region": "CA", "city": "Irvine", "postal": "92603", "lat": 33.6245, "lng": -117.794, "tz": "America/Los_Angeles"}}, {"day": "2019-09-21", "lo": 24442, "hi": 24442, "minPriceLocation": {"country": "US", "region": "VA", "city": "Rural Retreat", "postal": "24368", "lat": 36.8836, "lng": -81.2879, "tz": "America/New_York"}}, {"day": "2019-09-24", "lo": 24426, "hi": 24426, "minPriceLocation": {"country": "US", "region": "OR", "city": "Bend", "postal": "97707", "lat": 43.8431, "lng": -121.5764, "tz": "America/Los_Angeles"}}, {"day": "2019-09-25", "lo": 24468, "hi": 24468, "minPriceLocation": {"country": "RO", "lat": 46, "lng": 25, "tz": "Europe/Bucharest"}}, {"day": "2019-09-27", "lo": 24497, "hi": 24497, "minPriceLocation": {"country": "US", "region": "CT", "city": "Ridgefield", "postal": "06877", "lat": 41.2977, "lng": -73.4973, "tz": "America/New_York"}}, {"day": "2019-09-29", "lo": 24471, "hi": 24471, "minPriceLocation": {"country": "US", "region": "MD", "city": "Pasadena", "postal": "21122", "lat": 39.1206, "lng": -76.495, "tz": "America/New_York"}}, {"day": "2019-10-02", "lo": 27014, "hi": 27014, "minPriceLocation": {"country": "US", "region": "MA", "city": "North Adams", "postal": "01247", "lat": 42.6955, "lng": -73.08, "tz": "America/New_York"}}, {"day": "2019-10-03", "lo": 27077, "hi": 27077, "minPriceLocation": {"country": "US", "region": "TX", "city": "San Antonio", "postal": "78228", "lat": 29.4589, "lng": -98.5699, "tz": "America/Chicago"}}, {"day": "2019-10-04", "lo": 26507, "hi": 26507, "minPriceLocation": {"country": "US", "lat": 37.751, "lng": -97.822}}, {"day": "2019-10-07", "lo": 17653, "hi": 17653, "minPriceLocation": {"country": "US", "region": "MI", "city": "Canton", "postal": "48188", "lat": 42.291, "lng": -83.465, "tz": "America/Detroit"}}, {"day": "2019-10-12", "lo": 29694, "hi": 29694, "minPriceLocation": {"country": "US", "region": "CA", "city": "Chico", "postal": "95926", "lat": 39.7458, "lng": -121.8444, "tz": "America/Los_Angeles"}}, {"day": "2019-10-17", "lo": 29895, "hi": 29895, "minPriceLocation": {"country": "US", "region": "VA", "city": "Christiansburg", "postal": "24073", "lat": 37.1353, "lng": -80.4188, "tz": "America/New_York"}}, {"day": "2019-10-19", "lo": 27294, "hi": 27294, "minPriceLocation": {"country": "US", "lat": 37.751, "lng": -97.822}}, {"day": "2019-10-22", "lo": 27472, "hi": 27472, "minPriceLocation": {"country": "US", "region": "FL", "city": "Venice", "postal": "34285", "lat": 27.0933, "lng": -82.4498, "tz": "America/New_York"}}, {"day": "2019-10-23", "lo": 27389, "hi": 27389, "minPriceLocation": {"country": "US", "region": "OH", "city": "Bryan", "postal": "43506", "lat": 41.4748, "lng": -84.5629, "tz": "America/New_York"}}, {"day": "2019-10-25", "lo": 27674, "hi": 27674, "minPriceLocation": {"country": "US", "region": "MS", "city": "Morton", "postal": "39117", "lat": 32.4029, "lng": -89.5949, "tz": "America/Chicago"}}, {"day": "2019-10-26", "lo": 27573, "hi": 27573, "minPriceLocation": {"country": "US", "lat": 37.751, "lng": -97.822}}, {"day": "2019-10-29", "lo": 27436, "hi": 27436, "minPriceLocation": {"country": "US", "region": "OR", "city": "Portland", "postal": "97215", "lat": 45.5143, "lng": -122.599, "tz": "America/Los_Angeles"}}, {"day": "2019-10-30", "lo": 27457, "hi": 27457, "minPriceLocation": {"country": "SK", "lat": 48.6667, "lng": 19.5, "tz": "Europe/Bratislava"}}, {"day": "2019-11-05", "lo": 17653, "hi": 17653, "minPriceLocation": {"country": "US", "region": "AR", "city": "Conway", "postal": "72034", "lat": 35.0823, "lng": -92.4683, "tz": "America/Chicago"}}, {"day": "2019-11-13", "lo": 34352, "hi": 34352, "minPriceLocation": {"country": "US", "region": "MO", "city": "Kansas City", "postal": "64101", "lat": 39.1024, "lng": -94.5986, "tz": "America/Chicago"}}, {"day": "2019-11-16", "lo": 17653, "hi": 17653, "minPriceLocation": {"country": "US", "region": "AZ", "city": "Gilbert", "postal": "85295", "lat": 33.3054, "lng": -111.7408, "tz": "America/Phoenix"}}, {"day": "2019-11-20", "lo": 34089, "hi": 34089, "minPriceLocation": {"country": "US", "region": "AR", "city": "Arkadelphia", "postal": "71923", "lat": 34.1153, "lng": -93.069, "tz": "America/Chicago"}}, {"day": "2019-11-23", "lo": 17653, "hi": 17653, "minPriceLocation": {"country": "US", "region": "NY", "city": "Red Creek", "postal": "13143", "lat": 43.2291, "lng": -76.7146, "tz": "America/New_York"}}, {"day": "2019-11-27", "lo": 34966, "hi": 34966, "minPriceLocation": {"country": "US", "region": "GA", "city": "Statesboro", "postal": "30461", "lat": 32.45, "lng": -81.7158, "tz": "America/New_York"}}, {"day": "2019-11-28", "lo": 17653, "hi": 17653, "minPriceLocation": {"country": "US", "region": "MD", "city": "Joppa", "postal": "21085", "lat": 39.4242, "lng": -76.3541, "tz": "America/New_York"}}, {"day": "2020-01-02", "lo": 34054, "hi": 34054, "minPriceLocation": {"country": "US", "region": "NJ", "city": "Willingboro", "postal": "08046", "lat": 40.029, "lng": -74.8835, "tz": "America/New_York"}}, {"day": "2020-01-07", "lo": 27499, "hi": 27499, "minPriceLocation": {"country": "US", "region": "HI", "city": "Honolulu", "postal": "96826", "lat": 21.2941, "lng": -157.8284, "tz": "Pacific/Honolulu"}}, {"day": "2020-01-09", "lo": 27499, "hi": 27499, "minPriceLocation": {}}, {"day": "2020-01-11", "lo": 17653, "hi": 17653, "minPriceLocation": {"country": "US", "region": "MA", "city": "Worcester", "postal": "01605", "lat": 42.2894, "lng": -71.7888, "tz": "America/New_York"}}, {"day": "2020-11-29", "lo": 17653, "hi": 17653, "minPriceLocation": {"country": "US", "region": "IL", "city": "Chicago", "postal": "60625", "lat": 41.9703, "lng": -87.7042, "tz": "America/Chicago"}}, {"day": "2020-12-02", "lo": 17653, "hi": 17653, "minPriceLocation": {}}, {"day": "2021-02-24", "lo": 17653, "hi": 17653, "minPriceLocation": {"country": "US", "region": "FL", "city": "Apopka", "postal": "32712", "lat": 28.712, "lng": -81.5136, "tz": "America/New_York"}}, {"day": "2021-03-28", "lo": 17653, "hi": 17653, "minPriceLocation": {}}, {"day": "2021-03-29", "lo": 17653, "hi": 17653, "minPriceLocation": {}}, {"day": "2021-07-06", "lo": 17653, "hi": 17653, "minPriceLocation": {}}, {"day": "2021-07-13", "lo": 17653, "hi": 17653, "minPriceLocation": {}}, {"day": "2021-09-02", "lo": 46353, "hi": 46353, "minPriceLocation": {"country": "US", "region": "NY", "city": "Brooklyn", "postal": "11230", "lat": 40.6225, "lng": -73.965, "tz": "America/New_York"}}, {"day": "2021-09-03", "lo": 46353, "hi": 46353, "minPriceLocation": {}}, {"day": "2021-09-17", "lo": 17653, "hi": 17653, "minPriceLocation": {"country": "US", "region": "NC", "city": "Oxford", "postal": "27565", "lat": 36.3313, "lng": -78.6134, "tz": "America/New_York"}}, {"day": "2021-09-19", "lo": 46353, "hi": 46353, "minPriceLocation": {"country": "US", "region": "FL", "city": "Satellite Beach", "postal": "32937", "lat": 28.178, "lng": -80.602, "tz": "America/New_York"}}]